"","originalPlace","interpretedPlace","longitude","latitude","xmin","xmax","ymin","ymax","uncertainty"
"33","Genova, Italia","Genoa, Italy",8.946256,44.4056499,8.7160912,9.065573,44.3791252,44.514882,15418
"49","Venezuela","Venezuela",-66.58973,6.42375,-79.0255611,-59.80378,-4.1438179,14.470409,1163282
"26","Caracas - Venezuela","Caracas, Venezuela",-66.8037185,10.4696404,-67.0627784,-66.7179533,10.39665,10.5401335,12235
"44","New York",NA,-83.63293655,40.7822269,-93.2612808,-73.7002721,40.4913699,40.9152556,813591
"50","<U+0411><U+0435><U+043B><U+0430><U+0440><U+0443><U+0441><U+044C> <U+041C><U+0438><U+043D><U+0441><U+043A>","Minsk, Belarus",27.5615244,53.9045398,27.3753548,28.0641033,53.7961897,53.9715871,17174
"29","Dortmund","Dortmund, Germany",7.4652981,51.5135872,7.3023977,7.6381273,51.4157322,51.6000368,15352
"40","London",NA,-62.2256132,42.877431875,-84.126262,0.148271,37.0797589,51.6723432,1969695
"36","India","India",78.96288,20.593684,68.162386,97.395561,6.7535159,35.5087008,1931424
"46","Penang",NA,100.32926005,5.41454425,100.1751347,100.55062,5.122673,5.5853349,31034
"32","Garage",NA,-17.9027582,35.3784709555556,-99.1169092,81.7546137,-1.2560969,52.3502785,7567982
"45","Paterson, New Jersey ","Paterson, NJ, USA",-74.171811,40.9167654,-74.2061969,-74.12958,40.8886819,40.94159,4260
"43","malaysia","Malaysia",101.975766,4.210484,98.9362527,119.813461,0.461421,7.819847,537057
"31","Florida","Florida, USA",-81.5157535,27.6648274,-87.634896,-80.0311371,24.5210795,31.000968,398331
"25","Bogotá, Colombia",NA,-74.0759315,4.598078,-74.45177,-73.99631,3.72977,4.8371,28036
"24","andria","76123 Andria BT, Italy",16.2966406,41.2272519,16.2638788,16.3194016,41.2051073,41.2485246,3039
"38","Lecheria, Anzoátegui","Lecheria, Venezuela",-64.695053,10.188904,-64.7142202,-64.6587038,10.1732969,10.2249583,2726
"48","UK.","United Kingdom",-3.435973,55.378051,-8.6493572,33.916555,34.5625145,60.902396,2244973
"42","Madrid","Madrid, Madrid, Spain",-3.7037902,40.4167754,-3.8341618,-3.5249115,40.3120639,40.5635903,16067
"34","Germany","Germany",10.451526,51.165691,5.8663425,15.0418962,47.2701115,55.058347,530655
"23"," Seattle, WA","Seattle, WA, USA",-122.3320708,47.6062095,-122.4359085,-122.2359032,47.4955511,47.734145,14581
"28","Denver",NA,-88.0723953666667,41.0199520833333,-105.109927,-74.5679711,39.614431,42.681832,1133693
"30","FCT, Abuja ","Abuja, Nigeria",7.483333,9.066667,7.2331238,7.5549459,8.9220428,9.1866247,15501
"35","Global",NA,-28.971379125,20.042263125,-102.174306,31.0105312,-23.1935182,41.3823421,6078744
"41","Los Angeles, California","Los Angeles, CA, USA",-118.2436849,34.0522342,-118.6681759,-118.1552891,33.7036917,34.3373061,32761
"47","U.K.",NA,-1.71880431666666,32.0454332166667,-92.6330686,72.8420225,6.435706,52.3036272,6244466
"501","Washington, D.C. and Garowe","Washington, DC, USA",-77.0368707,38.9071923,-77.1197401,-76.909393,38.8031494,38.995548,13629
"221","Cali, Colombia",NA,-75.6687015,6.288342575,-76.70695,-74.0251815,3.27202,9.4128863,354975
"271","GLOBAL",NA,-28.971379125,20.042263125,-102.174306,31.0105312,-23.1935182,41.3823421,6078744
"381","sud-ouest",NA,3.0544729,7.7902493,-3.960881,10.15105,3.9221986,11.348253,873771
"361","Seattle, WA","Seattle, WA, USA",-122.3320708,47.6062095,-122.4359085,-122.2359032,47.4955511,47.734145,14581
"181","Alicante, Spain",NA,-0.52537075,38.31573965,-0.589937,-0.4034191,38.2778105,38.3909328,7046
"191","Argentina","Argentina",-63.616672,-38.416097,-73.5603602,-53.637481,-55.0577146,-21.781046,1997198
"391","Sydney",NA,151.2069399,-33.87056895,150.502229,151.3426361,-34.1692489,-33.4245981,51213
"451","Venezuela","Venezuela",-66.58973,6.42375,-79.0255611,-59.80378,-4.1438179,14.470409,1163282
"241","EARTH ","Earth, TX 79031, USA",-102.4107493,34.2331373,-102.419618,-102.384555,34.225743,34.2476349,1159
"401","U.K.",NA,-1.71880431666666,32.0454332166667,-92.6330686,72.8420225,6.435706,52.3036272,6244466
"371","Somewhere over the Rainbow","Somewhere Over the Rainbow Llc, 600 West Beaver Street, Zelienople, PA 16063, USA",-80.1486417,40.7844774,-80.1499907,-80.1472927,40.7831284,40.7858264,188
"351","okinawa | Japan","Okinawa Prefecture, Japan",127.6809317,26.2124013,122.933796,131.3320097,24.0458042,27.8854933,407052
"441","Venezuela","Venezuela",-66.58973,6.42375,-79.0255611,-59.80378,-4.1438179,14.470409,1163282
"261","Germany","Germany",10.451526,51.165691,5.8663425,15.0418962,47.2701115,55.058347,530655
"331","Madrid","Madrid, Madrid, Spain",-3.7037902,40.4167754,-3.8341618,-3.5249115,40.3120639,40.5635903,16067
"471","Venezuela","Venezuela",-66.58973,6.42375,-79.0255611,-59.80378,-4.1438179,14.470409,1163282
"461","Venezuela","Venezuela",-66.58973,6.42375,-79.0255611,-59.80378,-4.1438179,14.470409,1163282
"231","CARACAS - VENEZUELA","Caracas, Venezuela",-66.8037185,10.4696404,-67.0627784,-66.7179533,10.39665,10.5401335,12235
"301","Indonesia","Indonesia",113.921327,-0.789275,95.009707,141.019562,-11.0074361,6.076912,2380464
"481","Venezuela","Venezuela",-66.58973,6.42375,-79.0255611,-59.80378,-4.1438179,14.470409,1163282
"251","England, Great Britain.","England, UK",-1.1743197,52.3555177,-6.4177822,1.7629159,49.8647517,55.8111127,429748
"211","Braga, Portugal","Braga, Portugal",-8.426507,41.5454486,-8.4806633,-8.3421791,41.510402,41.5841477,5966
"201","Bali - Indonesia","Bali, Indonesia",115.188916,-8.4095178,114.431626,115.7115281,-8.8492609,-8.061682,69386
"311","Jakarta","Jakarta, Special Capital Region of Jakarta, Indonesia",106.845599,-6.2087634,106.686211,106.972825,-6.3708331,-6.0886599,19417
"341","México","Mexico",-102.552784,23.634501,-118.36443,-86.7105711,14.5333037,32.7187629,1851053
"411","United Kingdom, London","London, UK",-0.1277583,51.5073509,-0.3514683,0.148271,51.3849401,51.6723432,20654
"291","India","India",78.96288,20.593684,68.162386,97.395561,6.7535159,35.5087008,1931424
"392","UK","United Kingdom",-3.435973,55.378051,-8.6493572,33.916555,34.5625145,60.902396,2244973
"402","US","United States",-95.712891,37.09024,-124.39,-66.94,18.9110642,71.389888,3446521
"382","Town 'n' Country","Town 'n' Country, FL, USA",-82.5773193,28.0105745,-82.639662,-82.5254519,27.968395,28.039976,6057
"252","Jupiter","Jupiter, FL, USA",-80.0942087,26.9342246,-80.1809688,-80.0568581,26.8824881,26.9709431,5518
"352","Santiago de Compostela.","Santiago de Compostela, A Coruña, Spain",-8.5448445,42.8782132,-8.5687833,-8.520756,42.8547216,42.9056883,3264
"322","Morelia, Mich","Morelia, Mich., Mexico",-101.1949825,19.7059504,-101.2920819,-101.1250609,19.6499307,19.7579979,9341
"342","New York, NY ","New York, NY, USA",-74.0059413,40.7127837,-74.2590899,-73.7002721,40.4913699,40.9152556,32639
"202","Houston","Houston, TX, USA",-95.3698028,29.7604267,-95.7880869,-95.014496,29.523624,30.1107319,48298
"162","Chichester, Sussex, ","Chichester, Chichester, West Sussex, UK",-0.774936,50.83761,-0.8207528,-0.7366656,50.8090141,50.8631387,3913
"472","VENEZUELA","Venezuela",-66.58973,6.42375,-79.0255611,-59.80378,-4.1438179,14.470409,1163282
"312","Morelia, Mich","Morelia, Mich., Mexico",-101.1949825,19.7059504,-101.2920819,-101.1250609,19.6499307,19.7579979,9341
"432","Venezuela","Venezuela",-66.58973,6.42375,-79.0255611,-59.80378,-4.1438179,14.470409,1163282
"422","Utah","Utah, USA",-111.0937311,39.3209801,-114.0529979,-109.0410581,36.9979031,42.001618,345070
"122","Caracas ~ Venezuela","Caracas, Venezuela",-66.8037185,10.4696404,-67.0627784,-66.7179533,10.39665,10.5401335,12235
"372","Sarasota, FL","Sarasota, FL, USA",-82.5306527,27.3364347,-82.5890997,-82.478641,27.293016,27.389122,7535
"292","Margarita - Porlamar","Porlamar, Venezuela",-63.8699655,10.9570221,-63.9044667,-63.8159108,10.8837559,10.9888852,6890
"492","Zamora, Michoacán","Zamora, Michoacán, Mexico",-102.2631435,19.992352,-102.3260376,-102.2385727,19.9598729,20.0225735,4234
"452","Venezuela","Venezuela",-66.58973,6.42375,-79.0255611,-59.80378,-4.1438179,14.470409,1163282
"213","Idaho","Idaho, USA",-114.7420408,44.0682019,-117.2413657,-111.043495,41.9880051,49.0011461,308172
"232","Jacksonville",NA,-87.0761509666667,34.2439772,-95.2980379,-77.307847,30.103748,39.75766,900957
"462","Venezuela","Venezuela",-66.58973,6.42375,-79.0255611,-59.80378,-4.1438179,14.470409,1163282
"182","DKI Jakarta","Special Capital Region of Jakarta, Indonesia",106.822745,-6.1744651,106.3831259,106.972825,-6.3708331,-5.1843219,53331
"132","Caracas, Venezuela","Caracas, Venezuela",-66.8037185,10.4696404,-67.0627784,-66.7179533,10.39665,10.5401335,12235
"242","Johannesburg, South Africa",NA,28.03734825,-26.19902505,27.942449,28.1376001,-26.2389231,-26.1041199,10466
"172","Deutschland - Germany","Germany",10.451526,51.165691,5.8663425,15.0418962,47.2701115,55.058347,530655
"482","Washington",NA,-87.46768465,38.17124,-113.5366738,-76.909393,33.705673,41.3163429,968369
"152","Chicago ","Chicago, IL, USA",-87.6297982,41.8781136,-87.9402669,-87.524044,41.6443349,42.023131,18365
"92","Bandung","Bandung, Bandung City, West Java, Indonesia",107.6191228,-6.9174639,107.545901,107.739341,-6.9697351,-6.8368851,9966
"282","Maracay y Nirgua, Venezuela","Nirgua, Venezuela",-68.566367,10.151733,-68.5752009,-68.5498381,10.1383409,10.1734447,1778
"222","In my head...",NA,73.1975737,10.87937325,-4.6120307,151.0071781,-33.7334845,55.4922309,8255075
"142","Caracas, Venezuela","Caracas, Venezuela",-66.8037185,10.4696404,-67.0627784,-66.7179533,10.39665,10.5401335,12235
"332","N/A",NA,-10.2773127,25.67355035,-106.690876,72.8420394,-41.07578,50.763708,7367144
"262","Los Angeles","Los Angeles, CA, USA",-118.2436849,34.0522342,-118.6681759,-118.1552891,33.7036917,34.3373061,32761
"413","USA","United States",-95.712891,37.09024,-124.39,-66.94,18.9110642,71.389888,3446521
"442","Venezuela","Venezuela",-66.58973,6.42375,-79.0255611,-59.80378,-4.1438179,14.470409,1163282
"502","<U+041C><U+043E><U+0441><U+043A><U+0432><U+0430>","Moscow, Russia",37.6173,55.755826,37.3193288,37.9456611,55.489927,56.009657,34911
"302","Maryland","Maryland, USA",-76.6412712,39.0457549,-79.4876511,-75.0491813,37.8895135,39.7231914,156365
"102","Barcelona","Barcelona, Barcelona, Spain",2.1734035,41.3850639,2.0695258,2.2280099,41.320004,41.4695761,10454
"323","Long Island, NY","Long Island, New York, USA",-73.1349605,40.7891424,-74.0419018,-71.856252,40.5417806,41.14082,81381
"173","BRASIL, Rio Grande do Sul","State of Rio Grande do Sul, Brazil",-51.2176986,-30.0346316,-57.649284,-49.6916345,-33.752084,-27.0805987,361098
"423","Santiago, Republica Dominicana","Santiago De Los Caballeros, Dominican Republic",-70.7,19.466667,-70.7564899,-70.5895568,19.3650005,19.5146896,12763
"233","Dallas, TX","Dallas, TX, USA",-96.7969879,32.7766642,-96.9989413,-96.4637379,32.617537,33.0237921,25917
"463","Utah","Utah, USA",-111.0937311,39.3209801,-114.0529979,-109.0410581,36.9979031,42.001618,345070
"493","Wisconsin, USA","Wisconsin, USA",-88.7878678,43.7844397,-92.8894331,-86.7639767,42.491864,47.0807296,362862
"343","México, DF","Federal District, Mexico",-99.1013498,19.2464696,-99.3649242,-98.9403027,19.0482366,19.5927571,35429
"153","Bandung","Bandung, Bandung City, West Java, Indonesia",107.6191228,-6.9174639,107.545901,107.739341,-6.9697351,-6.8368851,9966
"263","Europe","Europe",15.2551187,54.5259614,-28.0371,74.1357,33.8978,82.7021697,3588225
"383","New York, NY","New York, NY, USA",-74.0059413,40.7127837,-74.2590899,-73.7002721,40.4913699,40.9152556,32639
"203","Canary Islands (Spain)","Canary Islands, Spain",-16.6291304,28.2915637,-18.391113,-13.31543,27.425414,29.463514,198410
"473","Venezuela","Venezuela",-66.58973,6.42375,-79.0255611,-59.80378,-4.1438179,14.470409,1163282
"303","Indonesia","Indonesia",113.921327,-0.789275,95.009707,141.019562,-11.0074361,6.076912,2380464
"333","Lousiana","Louisiana, USA",-91.9623327,30.9842977,-94.043352,-88.8162401,28.9254296,33.019544,304639
"483","Welt","Welt, Germany",8.7940122,54.3031508,8.7640007,8.8734173,54.2911973,54.3460554,2360
"503","<U+5343><U+8449><U+770C>","Chiba Prefecture, Japan",140.1233063,35.6050574,139.739439,140.8800807,34.8991263,36.1041115,85983
"133"," USA","United States",-95.712891,37.09024,-124.39,-66.94,18.9110642,71.389888,3446521
"243","Dallas, TX","Dallas, TX, USA",-96.7969879,32.7766642,-96.9989413,-96.4637379,32.617537,33.0237921,25917
"373","New Jersey","New Jersey, USA",-74.4056612,40.0583238,-75.5597921,-73.9024391,38.9285589,41.357423,150720
"353","Nepal","Nepal",84.124008,28.394857,80.0584699,88.2015257,26.3479661,30.4469452,456565
"223","Cincinnati, OH to Richmond, VA","Cincinnati, OH, USA",-84.5120196,39.1031182,-84.7120481,-84.3687548,39.051921,39.2207591,18011
"183","California, USA",NA,-90.52944526,38.53809948,-124.4096196,-76.4559239,32.5342321,42.0095169,1254469
"143","Athens - Nicosia","Nicosia",33.366667,35.166667,33.3186151,33.4762216,35.1516702,35.2323172,4681
"363","Nevada","Nevada, USA",-116.419389,38.8026097,-120.0064729,-114.0396479,35.001857,42.002207,409295
"293","Idaho","Idaho, USA",-114.7420408,44.0682019,-117.2413657,-111.043495,41.9880051,49.0011461,308172
"393","Orlando",NA,-85.904708525,35.232809825,-97.3806019,-80.5873395,28.3479859,38.8758844,622385
"193","Canada","Canada",-106.346771,56.130366,-142,-50,41.6765559,83.0956562,3015176
"163","Barcelona , SPAIN",NA,2.1283488,41.34125445,2.050608,2.2280099,41.2798095,41.4695761,9436
"443","Tangerang, indonesia","Tangerang, Tangerang City, Banten, Indonesia",106.631889,-6.178306,106.551456,106.748612,-6.2562341,-6.097141,12429
"253","Dallas, TX","Dallas, TX, USA",-96.7969879,32.7766642,-96.9989413,-96.4637379,32.617537,33.0237921,25917
"215","Chicago, IL, USA, Earth","Department of Earth and Environmental Sciences, 845 West Taylor Street, Chicago, IL 60607, USA",-87.6483041,41.8688449,-87.6496531,-87.6469551,41.8674959,41.8701939,187
"273","Florida","Florida, USA",-81.5157535,27.6648274,-87.634896,-80.0311371,24.5210795,31.000968,398331
"415","Pennsylvania","Pennsylvania, USA",-77.1945247,41.2033216,-80.519895,-74.6895018,39.7197989,42.2693866,239535
"484","Wisconsin","Wisconsin, USA",-88.7878678,43.7844397,-92.8894331,-86.7639767,42.491864,47.0807296,362862
"316","Los Angeles, CA","Los Angeles, CA, USA",-118.2436849,34.0522342,-118.6681759,-118.1552891,33.7036917,34.3373061,32761
"384","Ohio, USA",NA,-88.49671522,40.18489542,-106.6130478,-74.9771424,36.9841361,43.3236399,1174287
"254","global",NA,-28.971379125,20.042263125,-102.174306,31.0105312,-23.1935182,41.3823421,6078744
"424","u.s.a.","United States",-95.712891,37.09024,-124.39,-66.94,18.9110642,71.389888,3446521
"217","CLICK HERE --","Rush Brazilian Visa Service (CLICK HERE), 8484 Wilshire Boulevard #220, Beverly Hills, CA 90211, USA",-118.3757692,34.064643,-118.3771182,-118.3744202,34.063294,34.065992,195
"416","Salt Lake City","Salt Lake City, UT, USA",-111.8910474,40.7607793,-112.101512,-111.7394581,40.700246,40.8529699,16385
"184","Caracas, Venezuela","Caracas, Venezuela",-66.8037185,10.4696404,-67.0627784,-66.7179533,10.39665,10.5401335,12235
"164","[Wanaraja - Garut - Indonesia]","Wanaraja, Garut Regency, West Java, Indonesia",108.0065201,-7.1962145,107.961969,108.0688101,-7.2164,-7.15603,5409
"404","Prescott Valley","Prescott Valley, AZ, USA",-112.315721,34.6100243,-112.3862429,-112.2016869,34.5278231,34.672613,11204
"364","NY","New York, NY, USA",-74.0059413,40.7127837,-74.2590899,-73.7002721,40.4913699,40.9152556,32639
"494","Wisconsin","Wisconsin, USA",-88.7878678,43.7844397,-92.8894331,-86.7639767,42.491864,47.0807296,362862
"204","Cleveland ...Rocks!   Ohio","The Rock and Roll Hall of Fame and Museum, 1100 East 9th Street, Cleveland, OH 44114, USA",-81.6953685,41.5085414,-81.6967175,-81.6940195,41.5071924,41.5098904,188
"264","in your dreams",NA,-39.55178792,38.20642348,-118.280334,75.8256981,22.7234895,51.0095006,7528566
"394","Pagaden, Subang","Pagaden, Subang Regency, West Java, Indonesia",107.8050772,-6.4952673,107.7579261,107.830596,-6.536035,-6.421508,6913
"444","USA","United States",-95.712891,37.09024,-124.39,-66.94,18.9110642,71.389888,3446521
"224","Doha, Qatar","Doha, Qatar",51.5304368,25.2916097,51.4307964,51.6281212,25.1954283,25.4125783,14673
"294","International ",NA,10.3442034142857,41.0171879428571,-94.717181,125.1875614,6.104861,54.574336,7731046
"194","Chicago, IL","Chicago, IL, USA",-87.6297982,41.8781136,-87.9402669,-87.524044,41.6443349,42.023131,18365
"344","New Hampshire","New Hampshire, USA",-71.5723953,43.1938516,-72.557185,-70.6026612,42.696985,45.3054761,97461
"334","Massachusetts","Massachusetts, USA",-71.3824374,42.4072107,-73.5081419,-69.9285511,41.2390448,42.88679,130465
"354","New York City",NA,-83.63293655,40.7822269,-93.2612808,-73.7002721,40.4913699,40.9152556,813591
"374","Ohio","Ohio, USA",-82.907123,40.4172871,-84.8203049,-80.5182,38.4034229,41.9773019,264929
"434","usa","United States",-95.712891,37.09024,-124.39,-66.94,18.9110642,71.389888,3446521
"464","Venezuela","Venezuela",-66.58973,6.42375,-79.0255611,-59.80378,-4.1438179,14.470409,1163282
"454","USA","United States",-95.712891,37.09024,-124.39,-66.94,18.9110642,71.389888,3446521
"174","Argentina","Argentina",-63.616672,-38.416097,-73.5603602,-53.637481,-55.0577146,-21.781046,1997198
"474","Venezuela","Venezuela",-66.58973,6.42375,-79.0255611,-59.80378,-4.1438179,14.470409,1163282
"504","<U+0423><U+043A><U+0440><U+0430><U+0438><U+043D><U+0430>","Ukraine",31.16558,48.379433,22.1371589,40.228581,44.386463,52.379581,781533
"335","La Guaira","La Guaira, Venezuela",-66.933056,10.6,-66.9522638,-66.8990135,10.5621143,10.6081,3832
"345","La Victoria, Aragua","La Victoria, Venezuela",-67.333611,10.227778,-67.3524141,-67.2948432,10.1992105,10.2489831,3789
"325","Isla de Margarita, Venezuela","Isla Margarita, Venezuela",-63.9113296,10.9970723,-64.4081917,-63.7768225,10.8611824,11.1770176,24843
"505","<U+7A32><U+6CA2><U+5E02>","Inazawa, Aichi Prefecture, Japan",136.780202,35.2481321,136.6791563,136.838981,35.1937018,35.2768433,6226
"265","global",NA,-28.971379125,20.042263125,-102.174306,31.0105312,-23.1935182,41.3823421,6078744
"435","Stone Mountain, GA",NA,-84.15810495,33.80709025,-84.186566,-84.1446649,33.7900511,33.8147278,1506
"405","Panamá","Panama",-80.782127,8.537981,-83.0522411,-77.158488,7.2035564,9.6477792,291079
"365","Los Angeles","Los Angeles, CA, USA",-118.2436849,34.0522342,-118.6681759,-118.1552891,33.7036917,34.3373061,32761
"485","Whole World ","Whole World Pet, 1637 16th Street, Santa Monica, CA 90404, USA",-118.479732,34.0221693,-118.481081,-118.478383,34.0208203,34.0235183,195
"445","SWMO","Sports Park of Southwest Missouri, 1107 North Prosperity Avenue, Joplin, MO 64801, USA",-94.4201209,37.0995529,-94.4214699,-94.4187719,37.0982039,37.1009019,192
"318","indonesian",NA,18.5936433,19.98926095,-77.0475985,119.2693619,-4.1784749,38.9116341,9512710
"355","Londres, Inglaterra.","London, UK",-0.1277583,51.5073509,-0.3514683,0.148271,51.3849401,51.6723432,20654
"385","München","Munich, Germany",11.5819806,48.1351253,11.360796,11.7228755,48.0616018,48.2482197,16365
"425","Santo Domingo, D.N",NA,-69.85765085,18.467287875,-70.0795555,-69.5951271,18.4031528,18.6114343,24498
"245","Florida","Florida, USA",-81.5157535,27.6648274,-87.634896,-80.0311371,24.5210795,31.000968,398331
"305","Indonesia","Indonesia",113.921327,-0.789275,95.009707,141.019562,-11.0074361,6.076912,2380464
"205","España ","Spain",-3.74922,40.463667,-18.160788,5.098,27.6377894,45.244,896044
"195","Caracas/Venezuela","Caracas, Venezuela",-66.8037185,10.4696404,-67.0627784,-66.7179533,10.39665,10.5401335,12235
"255","Germany","Germany",10.451526,51.165691,5.8663425,15.0418962,47.2701115,55.058347,530655
"275","Global",NA,-28.971379125,20.042263125,-102.174306,31.0105312,-23.1935182,41.3823421,6078744
"455","USA","United States",-95.712891,37.09024,-124.39,-66.94,18.9110642,71.389888,3446521
"375","Miami, Florida","Miami, FL, USA",-80.1917902,25.7616798,-80.3197599,-80.1424003,25.709042,25.8556059,11568
"475","Venezuela","Venezuela",-66.58973,6.42375,-79.0255611,-59.80378,-4.1438179,14.470409,1163282
"295","Indonesia","Indonesia",113.921327,-0.789275,95.009707,141.019562,-11.0074361,6.076912,2380464
"219","Everywhere",NA,-29.9474059,47.0558023666667,-91.8639406,4.5756752,37.6570426,51.9572156,2529100
"285","in your heart",NA,-108.25892615,31.7080536,-118.2023917,-98.3154606,29.6136909,33.8024163,959199
"495","<U+5927><U+962A>",NA,135.505600666667,34.6939817333333,135.0919494,135.7467917,34.2715365,35.0512819,45467
"165"," Pennsylvania","Pennsylvania, USA",-77.1945247,41.2033216,-80.519895,-74.6895018,39.7197989,42.2693866,239535
"395","NIGERIA","Nigeria",8.675277,9.081999,2.676932,14.677982,4.2698571,13.885645,845260
"185","Bremen","Bremen, Germany",8.8016937,53.0792962,8.4817585,8.9908131,53.0116038,53.2289105,20899
"456","Venezuela","Venezuela",-66.58973,6.42375,-79.0255611,-59.80378,-4.1438179,14.470409,1163282
"426","Texas","Texas, USA",-99.9018131,31.9685988,-106.6456461,-93.5080389,25.8371638,36.5015087,774808
"266","Granbury, Texas","Granbury, TX, USA",-97.7941967,32.4420826,-97.834592,-97.6280531,32.411315,32.514009,5113
"246","Ft. Lauderdale Fl","Fort Lauderdale, FL, USA",-80.1373174,26.1224386,-80.2039691,-80.095977,26.070365,26.21186,8832
"166","Argentina","Argentina",-63.616672,-38.416097,-73.5603602,-53.637481,-55.0577146,-21.781046,1997198
"236","FRANCE","France",2.213749,46.227638,-5.1412279,9.5600678,41.3423276,51.089166,763939
"226","FL, Miami","Miami, FL, USA",-80.1917902,25.7616798,-80.3197599,-80.1424003,25.709042,25.8556059,11568
"336","lagos nigeria","Lagos, Nigeria",3.3792057,6.5243793,3.0982732,3.6967278,6.3936419,6.7027984,34314
"366","Madrid","Madrid, Madrid, Spain",-3.7037902,40.4167754,-3.8341618,-3.5249115,40.3120639,40.5635903,16067
"346","Laguna Beach","Laguna Beach, CA, USA",-117.7831104,33.5422475,-117.819288,-117.730218,33.4841732,33.612393,7285
"356","London, United Kingdom","London, UK",-0.1277583,51.5073509,-0.3514683,0.148271,51.3849401,51.6723432,20654
"256","Fuengirola, Málaga  (España)","Fuengirola, Málaga, Spain",-4.6249439,36.544148,-4.6366187,-4.589892,36.5190812,36.5781085,2979
"286","Harrisburg, PA","Harrisburg, PA, USA",-76.8867008,40.2731911,-76.924457,-76.836394,40.237601,40.326688,5098
"306","Indianapolis, IN","Indianapolis, IN, USA",-86.158068,39.768403,-86.3281211,-85.9373789,39.632177,39.927392,21026
"3110","Italy","Italy",12.56738,41.87194,6.6267201,18.5205015,35.4929201,47.092,748682
"386","maracaibo",NA,-71.633333,10.633333,-71.771965,-71.5819216,10.5025919,10.7645085,15648
"376","Madrid","Madrid, Madrid, Spain",-3.7037902,40.4167754,-3.8341618,-3.5249115,40.3120639,40.5635903,16067
"466","Venezuela","Venezuela",-66.58973,6.42375,-79.0255611,-59.80378,-4.1438179,14.470409,1163282
"196","Catalunya","Catalonia, Spain",1.5208624,41.5911589,0.1591811,3.3325445,40.5230466,42.8614502,164927
"406","Republica Dominicana",NA,-65.7668135,17.075346,-72.00751,-61.2403035,15.207682,19.9317185,573899
"176","caracas","Caracas, Venezuela",-66.8037185,10.4696404,-67.0627784,-66.7179533,10.39665,10.5401335,12235
"156","All over.",NA,-34.49743668,30.66928188,-116.056403,148.0127243,-35.7785919,52.2469221,10804071
"396","Massachusetts","Massachusetts, USA",-71.3824374,42.4072107,-73.5081419,-69.9285511,41.2390448,42.88679,130465
"476","Wisconsin","Wisconsin, USA",-88.7878678,43.7844397,-92.8894331,-86.7639767,42.491864,47.0807296,362862
"446","Valencia",NA,-62.3149447333333,28.0279611333333,-118.5726847,-0.2914778,10.111176,39.5073225,5766167
"326","Kentucky","Kentucky, USA",-84.2700179,37.8393332,-89.5715089,-81.9649708,36.4971289,39.147458,248056
"296","In your phone","Cell Phone Lot, Indianapolis International Airport, 7800 Col. H. Weir Cook Memorial Drive, Indianapolis, IN 46241, USA",-86.3100212,39.7009299,-86.3113213,-86.3086234,39.699568,39.702266,188
"387","Singapore","Singapore",103.819836,1.352083,103.6055448,104.0884808,1.1587023,1.4707592,32128
"457","Venezuela","Venezuela",-66.58973,6.42375,-79.0255611,-59.80378,-4.1438179,14.470409,1163282
"447","Vancouver, British Columbia","Vancouver, BC, Canada",-123.1207375,49.2827291,-123.224759,-123.023068,49.1998604,49.3140764,7902
"227","Barcelona - Brussel - London",NA,-62.2256132,42.877431875,-84.126262,0.148271,37.0797589,51.6723432,1969695
"337","México, DF","Federal District, Mexico",-99.1013498,19.2464696,-99.3649242,-98.9403027,19.0482366,19.5927571,35429
"497","worldwide",NA,-56.63086845,43.3015404666667,-90.44449,-0.1660249,36.1194506,53.6096292,2981513
"2111","Around You","The World Around You, Ann Arbor, MI 48104, USA",-83.7462669,42.2815139,-83.7476372,-83.7449393,42.2801692,42.2828671,186
"507","Worldwide",NA,-56.63086845,43.3015404666667,-90.44449,-0.1660249,36.1194506,53.6096292,2981513
"357","New York USA - Novi Sad Serbia","Novi Sad, Serbia",19.8335496,45.2671352,19.7674513,19.9314308,45.2209241,45.3219787,7301
"328","Las Vegas ",NA,-111.845159033333,35.9596207666667,-115.414625,-105.18777,35.5571991,36.380623,325523
"477","Victoria BC Canada","Victoria, BC, Canada",-123.3656444,48.4284207,-123.394489,-123.322346,48.4028414,48.450518,3557
"428","Vacaville CA","Vacaville, CA, USA",-121.9877444,38.3565773,-122.0324541,-121.89695,38.3086281,38.4174749,6613
"3111","Jakarta","Jakarta, Special Capital Region of Jakarta, Indonesia",106.845599,-6.2087634,106.686211,106.972825,-6.3708331,-6.0886599,19417
"407","Unites States","United States",-95.712891,37.09024,-124.39,-66.94,18.9110642,71.389888,3446521
"437","Vadofone.",NA,74.6583531625,23.0143710541667,-4.1446971,88.9315231,9.6092614,50.3729113,3288174
"367","Nigeria","Nigeria",8.675277,9.081999,2.676932,14.677982,4.2698571,13.885645,845260
"207","...The World...","The World - United Arab Emirates",55.166667,25.216667,55.1506596,55.1826744,25.2065719,25.2267612,1965
"277","España","Spain",-3.74922,40.463667,-18.160788,5.098,27.6377894,45.244,896044
"4111","USA","United States",-95.712891,37.09024,-124.39,-66.94,18.9110642,71.389888,3446521
"297","France","France",2.213749,46.227638,-5.1412279,9.5600678,41.3423276,51.089166,763939
"257","Chapeltown,Rotherham, UK","Chapeltown, South Yorkshire, UK",-1.4658469,53.459821,-1.5073721,-1.4466799,53.4510943,53.4798519,2566
"307","Hamburg","Hamburg, Germany",9.9936818,53.5510846,9.7301316,10.32528,53.3962857,53.7394338,24533
"247","Canada","Canada",-106.346771,56.130366,-142,-50,41.6765559,83.0956562,3015176
"487","Wisconsin, USA","Wisconsin, USA",-88.7878678,43.7844397,-92.8894331,-86.7639767,42.491864,47.0807296,362862
"237","Bellevue",NA,-92.2438815333333,42.3512306666667,-122.222931,-80.044676,39.0923141,47.660897,1125557
"287","Florida","Florida, USA",-81.5157535,27.6648274,-87.634896,-80.0311371,24.5210795,31.000968,398331
"347","México, Distrito Federal","Federal District, Mexico",-99.1013498,19.2464696,-99.3649242,-98.9403027,19.0482366,19.5927571,35429
"267","Deutschland","Germany",10.451526,51.165691,5.8663425,15.0418962,47.2701115,55.058347,530655
"377","Planeta Tierra",NA,-59.1692698571429,29.1372480571429,-103.1233009,-3.6778693,19.4052925,40.3935453,4562732
"378","México, Distrito Federal","Federal District, Mexico",-99.1013498,19.2464696,-99.3649242,-98.9403027,19.0482366,19.5927571,35429
"238","America ","United States",-95.712891,37.09024,-124.39,-66.94,18.9110642,71.389888,3446521
"448","San Jose, California, USA","San Jose, CA, USA",-121.8863286,37.3382082,-122.0456679,-121.589154,37.124493,37.4695381,27667
"329","Iceland","Iceland",-19.020835,64.963051,-24.546524,-13.4958154,63.2962342,66.5663183,309007
"248","Arkansas","Arkansas, USA",-91.8318334,35.20105,-94.617919,-89.6448379,33.0041059,36.4997491,244612
"398","Miraflores #MientrasTanto","Miraflores, Peru",-77.0315913,-12.111062,-77.0561412,-77.0010174,-12.1401125,-12.1028369,3451
"478","Valencia, Venezuela","Valencia, Venezuela",-67.9972104,10.1579312,-68.0744649,-67.9139829,10.111176,10.2339878,9938
"288","Fresno",NA,-98.9871815,35.5394193,-119.934483,-81.7401673,29.5100481,40.3339182,1602310
"438","República Dominicana","Dominican Republic",-70.162651,18.735693,-72.00751,-68.3234068,17.4700909,19.9317185,234626
"358","Los Angeles, California","Los Angeles, CA, USA",-118.2436849,34.0522342,-118.6681759,-118.1552891,33.7036917,34.3373061,32761
"408","München","Munich, Germany",11.5819806,48.1351253,11.360796,11.7228755,48.0616018,48.2482197,16365
"348","Karachi ","Karachi, Pakistan",67.0099388,24.8614622,66.6609568,67.4684519,24.7519801,25.2703106,37311
"4210","Oregon","Oregon, USA",-120.5542012,43.8041334,-124.6129365,-116.463262,41.9917941,46.2920157,387557
"468","Tilburg, Nederland","Tilburg, Netherlands",5.0919143,51.560596,4.9476409,5.1297378,51.5294459,51.6178258,6887
"278","California","California, USA",-119.4179324,36.778261,-124.4096196,-114.131211,32.5342321,42.0095169,657155
"308","Global ",NA,-28.971379125,20.042263125,-102.174306,31.0105312,-23.1935182,41.3823421,6078744
"498","Wisconsin","Wisconsin, USA",-88.7878678,43.7844397,-92.8894331,-86.7639767,42.491864,47.0807296,362862
"488","Venezuela","Venezuela",-66.58973,6.42375,-79.0255611,-59.80378,-4.1438179,14.470409,1163282
"458","South Africa","South Africa",22.937506,-30.559482,16.4534625,32.8909911,-34.8331382,-22.125424,771233
"368","medan sumatra utara","Medan, Medan City, North Sumatra, Indonesia",98.6722227,3.5951956,98.592467,98.74652,3.488117,3.796456,14853
"4112","NY","New York, NY, USA",-74.0059413,40.7127837,-74.2590899,-73.7002721,40.4913699,40.9152556,32639
"298","Germany","Germany",10.451526,51.165691,5.8663425,15.0418962,47.2701115,55.058347,530655
"268","Austin, Texas","Austin, TX, USA",-97.7430608,30.267153,-97.9383829,-97.5684199,30.0986589,30.5168629,26553
"209","Brasil","Brazil",-51.92528,-14.235004,-73.982817,-29.3450235,-33.7503816,5.2717863,3108572
"479","Wisconsin","Wisconsin, USA",-88.7878678,43.7844397,-92.8894331,-86.7639767,42.491864,47.0807296,362862
"449","Venezuela","Venezuela",-66.58973,6.42375,-79.0255611,-59.80378,-4.1438179,14.470409,1163282
"459","Venezuela","Venezuela",-66.58973,6.42375,-79.0255611,-59.80378,-4.1438179,14.470409,1163282
"409","USA","United States",-95.712891,37.09024,-124.39,-66.94,18.9110642,71.389888,3446521
"2113","Canada","Canada",-106.346771,56.130366,-142,-50,41.6765559,83.0956562,3015176
"189","Bahrain","Bahrain",50.5577,26.0667,50.3781509,50.8248461,25.5564577,26.3303935,39670
"299","New York ,USA",NA,-87.6450002666667,37.9107953,-95.6704767,-73.7002721,32.1665831,40.9152556,970849
"3210","Roma, Italia.  ",NA,12.0687438,43.93848728,11.1029575,12.7971034,41.4317114,45.7741872,212276
"489","Wisconsin","Wisconsin, USA",-88.7878678,43.7844397,-92.8894331,-86.7639767,42.491864,47.0807296,362862
"169","<U+2197> Villa Juana <U+2199>","Villa Juana, Santo Domingo, Dominican Republic",-69.9103667,18.4865983,-69.9150503,-69.8992038,18.4814202,18.4951465,759
"2210","Canada","Canada",-106.346771,56.130366,-142,-50,41.6765559,83.0956562,3015176
"4211","Utah","Utah, USA",-111.0937311,39.3209801,-114.0529979,-109.0410581,36.9979031,42.001618,345070
"309","New York, New York",NA,-83.96641245,40.19903555,-93.9282326,-73.7002721,39.6839384,40.9152556,851710
"179","Australia","Australia",133.775136,-25.274398,112.9214544,159.2555254,-54.7772185,-9.2198215,3234063
"199","Bantul,Djogjakarta","Bantul Regency, Bantul, Bantul Sub-District, Bantul Regency, Special Region of Yogyakarta, Indonesia",110.3255365,-7.8748176,110.2650747,110.3900944,-7.9531676,-7.8514925,7578
"389","USA","United States",-95.712891,37.09024,-124.39,-66.94,18.9110642,71.389888,3446521
"159","$24.92",NA,-3.88879950333333,43.05270709,-99.8456355,143.1985583,6.2819848,69.3992874,7231847
"239","Caracas - Venezuela","Caracas, Venezuela",-66.8037185,10.4696404,-67.0627784,-66.7179533,10.39665,10.5401335,12235
"379","USA","United States",-95.712891,37.09024,-124.39,-66.94,18.9110642,71.389888,3446521
"289","München","Munich, Germany",11.5819806,48.1351253,11.360796,11.7228755,48.0616018,48.2482197,16365
"369","Toronto",NA,-71.38157565,45.0528475,-79.639219,-63.378618,43.5810846,46.453818,640565
"259","Cupertino, CA","Cupertino, CA, USA",-122.0321823,37.3229978,-122.0911729,-121.996116,37.2784429,37.340057,3715
"269","Kentucky","Kentucky, USA",-84.2700179,37.8393332,-89.5715089,-81.9649708,36.4971289,39.147458,248056
"349","San Francisco and my truck","San Francisco, CA, USA",-122.4194155,37.7749295,-123.1077733,-122.3279149,37.6933354,37.9297707,19021
"3310","Round Lake Beach, IL","Round Lake Beach, IL, USA",-88.0900815,42.3716881,-88.1197541,-88.043075,42.3640092,42.3986911,2586
"3113","Pennsylvania, USA","Pennsylvania, USA",-77.1945247,41.2033216,-80.519895,-74.6895018,39.7197989,42.2693866,239535
"469","Winnipeg","Winnipeg, MB, Canada",-97.1374937,49.8997541,-97.349222,-96.9552281,49.71377,49.9938741,16741
"509","<U+6771><U+4EAC>",NA,139.7288952,35.68543475,138.9427579,153.9875216,24.2242343,35.8986466,1278091
"249","Caracas, Venezuela","Caracas, Venezuela",-66.8037185,10.4696404,-67.0627784,-66.7179533,10.39665,10.5401335,12235
"359","Southern California","Southern California",-116.419389,34.9592083,-121.4381759,-114.131211,32.528832,35.8092361,228202
"399","USA","United States",-95.712891,37.09024,-124.39,-66.94,18.9110642,71.389888,3446521
"279","London, United Kingdom","London, UK",-0.1277583,51.5073509,-0.3514683,0.148271,51.3849401,51.6723432,20654
"439","Utah","Utah, USA",-111.0937311,39.3209801,-114.0529979,-109.0410581,36.9979031,42.001618,345070
